[
    {
        "name": "The Collar Club Pte Ltd",
        "address": "478 River Valley Road Singapore 248363",
        "latitude": 1.293571,
        "longitude": 103.8263239
    },
    {
        "name": "Catderland Pte Ltd",
        "address": "430 Upper Changi Road Singapore 487048",
        "latitude": 1.3318464,
        "longitude": 103.9463496
    },
    {
        "name": "Furmummy Pte Ltd",
        "address": "505 Balestier Road Singapore 329846",
        "latitude": 1.3264291,
        "longitude": 103.8468887
    },
    {
        "name": "Mutts & Mittens Pte Ltd",
        "address": "862 Upper Serangoon Road Singapore 534691",
        "latitude": 1.3583975,
        "longitude": 103.8836565
    },
    {
        "name": "Happy Rolling",
        "address": "479 Geylang Road Singapore 389438",
        "latitude": 1.3136245,
        "longitude": 103.883446
    },
    {
        "name": "Canine Solutions Pte Ltd",
        "address": "118 Tembeling Road Singapore 423617",
        "latitude": 1.3112338,
        "longitude": 103.9022136
    },
    {
        "name": "PAYMHS Private Limited",
        "address": "361 Joo Chiat Road Singapore 427606",
        "latitude": 1.3084086,
        "longitude": 103.9032352
    },
    {
        "name": "Fyfy's Love Pet Services",
        "address": "90 Joo Chiat Road Singapore 427384",
        "latitude": 1.3142778,
        "longitude": 103.8987324
    },
    {
        "name": "The Wagington Pet Hotels Int\u2019l Pte Ltd",
        "address": "27B Loewen Road Singapore 248850",
        "latitude": 1.3028906,
        "longitude": 103.8115961
    },
    {
        "name": "The Fluffy Group LLP",
        "address": "492 Macpherson Road Singapore 368199",
        "latitude": 1.3320878,
        "longitude": 103.8833584
    },
    {
        "name": "Nekoya Pte Ltd",
        "address": "59 Kampong Bahru Road Singapore 169367",
        "latitude": 1.2766454,
        "longitude": 103.8359746
    },
    {
        "name": "Nekoya Pte Ltd",
        "address": "9 King Albert Park Singapore 598332",
        "latitude": 1.3370239,
        "longitude": 103.7794324
    },
    {
        "name": "Nekoya Pte Ltd",
        "address": "247A Jalan Kayu Singapore 799471",
        "latitude": 1.3966363,
        "longitude": 103.8729448
    },
    {
        "name": "Catpurra Cat Care",
        "address": "767A Geylang Road Singapore 389664",
        "latitude": 1.3150185,
        "longitude": 103.891203
    },
    {
        "name": "Art of Pets Grooming School Pte Ltd",
        "address": "479 Joo Chiat Road Singapore 427684",
        "latitude": 1.3063078,
        "longitude": 103.904804
    },
    {
        "name": "Paw Labb Pte Ltd",
        "address": "16 The Oval Singapore 797873",
        "latitude": 1.408624,
        "longitude": 103.867307
    },
    {
        "name": "Pampered Pets Relocation & Lodging Pte Ltd",
        "address": "1 Vista Exchange Green Singapore 138617",
        "latitude": 1.306842,
        "longitude": 103.78844
    },
    {
        "name": "Wagging Tails N Playful Paws",
        "address": "40 Yio Chu Kang Road Singapore 545555",
        "latitude": 1.3569016,
        "longitude": 103.875897
    },
    {
        "name": "Purr Edition Singapore Pte Ltd",
        "address": "259 Jalan Besar Singapore 208934",
        "latitude": 1.3102495,
        "longitude": 103.8583177
    },
    {
        "name": "Minnie\u2019s Chinchillas Pte Ltd",
        "address": "110 Yishun Ring Road Singapore 760110",
        "latitude": 1.4336611,
        "longitude": 103.8292839
    },
    {
        "name": "Fluff Ave Private Limited",
        "address": "8 Jalan Masjid Singapore 418927",
        "latitude": 1.3196639,
        "longitude": 103.9128112
    },
    {
        "name": "The Moon Bunny LLP",
        "address": "142 Jalan Besar Singapore 208860",
        "latitude": 1.3068534,
        "longitude": 103.8565166
    },
    {
        "name": "Waggy Potato Private Limited",
        "address": "643 Geylang Rd Singapore 389573",
        "latitude": 1.3144279,
        "longitude": 103.8880677
    },
    {
        "name": "Super Cuddles Pte Ltd",
        "address": "71A Geylang Road Singapore 389194",
        "latitude": 1.3106226,
        "longitude": 103.8727223
    }
]